[
  {
    "id": 1,
    "name": "Mindra Polar International AC Station",
    "city": "Ahmedabad",
    "code": 1,
    "address": "Rahul Tower, 4,Vraj Vihar -6 B/H, Prernatirth Derasar Rd, Satellite, Ahmedabad, Gujarat 380015",
    "lattitude": 23.0158,
    "longitude": 72.5178,
    "type": 12,
    "image": "https://encrypted-tbn0.gstatic.com/images?q=tbn:ANd9GcS8PCvbmifNAR9YdrBCV_7gJrnoeD8eY53N1A&usqp=CAU",
    "totalcount": 8
  },
  {
    "id": 2,
    "name": "Mindra Crispy Culture AC Charging Station",
    "city": "Ahmedabad",
    "code": 1,
    "address": "Narayan Nagar Society, Narayan Nagar, Ahmedabad, Gujarat 380007",
    "lattitude": 22.9989,
    "longitude": 72.5594,
    "type": 12,
    "image": "https://imgd.aeplcdn.com//642x361//n/cw/ec/164625/right-front-three-quarter2.jpeg?isig=0&wm=0&q=75",
    "totalcount": 7
  },
  {
    "id": 3,
    "name": "Fairfield by Marriott, Ashram Rd",
    "city": "Ahmedabad",
    "code": 1,
    "address": "Ashram Rd, Satyawadi Society, Usmanpura, Ahmedabad, Gujarat 380013",
    "lattitude": 23.0522787,
    "longitude": 72.5710882,
    "type": 7,
    "image": "https://encrypted-tbn0.gstatic.com/images?q=tbn:ANd9GcT9XlVq0bgI9abCzX7uA49bavlGh6Bjt08_8g&usqp=CAU",
    "totalcount": 11
  },
  {
    "id": 4,
    "name": "HP Service Center, Sola",
    "city": "Ahmedabad",
    "code": 1,
    "address": "F.P. No 232/1, Solaroad, Ahmedabad 380061",
    "lattitude": 23.0633903,
    "longitude": 72.5317625,
    "type": 7,
    "image": "https://chargezone.com/assets/img/blog/blog5.jpeg"
  },
  {
    "id": 5,
    "name": "HP Autocare , Bodakdev",
    "city": "Ahmedabad",
    "code": 1,
    "address": "JUDGES BUNGALOW ROAD, T VILLAGE : BODAKDEV , CITY : AHMEDABAD 380054",
    "lattitude": 23.0332201,
    "longitude": 72.5137528,
    "type": 7,
    "image": "https://assets.bwbx.io/images/users/iqjWHBFdfxIU/ienx0Xtv9kJc/v1/1200x814.jpg"
  },
  {
    "id": 6,
    "name": "Shree Siddhi Vinayak Indian Oil Petrol Pump",
    "city": "Ahmedabad",
    "code": 1,
    "address": "Shree Siddhi Vinayak Indian Oil Petroleum Judges Bangla, Satya Marg, Bodakdev, Ahmedabad, Gujrat",
    "lattitude": 23.04430424,
    "longitude": 72.51767735,
    "type": 8,
    "image": "https://encrypted-tbn0.gstatic.com/images?q=tbn:ANd9GcQZTqpWk8NkJ-fro3mXJ1HXAImNz6NWPD9DVw&usqp=CAU"
  },
  {
    "id": 7,
    "name": "COCO Vejalpur Ahmedabad",
    "city": "Ahmedabad",
    "code": 1,
    "address": "Next to Sachin Towers, shyamal Cross Roads, Anand nagar Cross Roads, Ahmedabad, Gujrat",
    "lattitude": 23.01303861,
    "longitude": 72.52421557,
    "type": 8,
    "image": "https://car-images.bauersecure.com/wp-images/4751/fastned.jpg"
  },
  {
    "id": 8,
    "name": "MG AHMEDABAD MAKARBA",
    "city": "Ahmedabad",
    "code": 1,
    "address": "PLOT NO 2,GROUND FLOOR,SURVEY NO 841/1 AND 2,10,SIGNATURE 1 ,NEAR OLD RAILWAY LINE,SG HIGHWAY,MAKARBA,GUJARAT 3850051 AHMEDABAD",
    "lattitude": 22.996681,
    "longitude": 72.498226,
    "type": 20,
    "image": "https://encrypted-tbn0.gstatic.com/images?q=tbn:ANd9GcSPdN0ASDqD_MlZNrMLlZ8VOlegW6e8eZRFzg&usqp=CAU"
  },
  {
    "id": 9,
    "name": "GJ | Ahmedabad | Abhinav Girls Hostel Bodakdev",
    "city": "Ahmedabad",
    "code": 1,
    "address": "Bodakdev, Ahmedabad, Gujarat 380054",
    "lattitude": 23.058,
    "longitude": 72.5001,
    "type": 24,
    "image": "https://assets.mspimages.in/wp-content/uploads/2022/06/India-EV-charging.jpg"
  },
  {
    "id": 10,
    "name": "MG AHMEDABAD MAKARBA",
    "city": "Ahmedabad",
    "code": 1,
    "address": "PLOT NO 2,GROUND FLOOR,SURVEY NO 841/1 AND 2,10,SIGNATURE 1 ,NEAR OLD RAILWAY LINE,SG HIGHWAY,MAKARBA,GUJARAT 3850051 AHMEDABAD",
    "lattitude": 22.996681,
    "longitude": 72.498226,
    "type": 20,
    "image": "https://www.iisd.org/sites/default/files/styles/banner_mobile/public/2022-07/evs-charging-india.jpg?h=82102dc8&itok=9lkGz8Hk"
  },
  {
    "id": 11,
    "name": "Ginger Vastrapur, Drive In Road",
    "city": "Ahmedabad",
    "code": 1,
    "address": "Behind Himalaya Mall, Drive In Road, Ahmedabad - 380015",
    "lattitude": 23.04626,
    "longitude": 72.53069,
    "type": 7,
    "image": "https://encrypted-tbn0.gstatic.com/images?q=tbn:ANd9GcS8PCvbmifNAR9YdrBCV_7gJrnoeD8eY53N1A&usqp=CAU"
  },
  {
    "id": 12,
    "name": "Westside, Ellisbridge",
    "city": "Ahmedabad",
    "code": 1,
    "address": "Ground Floor, Abhijeet V, Netaji Rd Ellisbridge Opp. Mayor Bungalow, Ellisbridge, Ahmedabad, Gujarat 380006",
    "lattitude": 23.02938,
    "longitude": 72.56142,
    "type": 7,
    "image": "https://imgd.aeplcdn.com//642x361//n/cw/ec/164625/right-front-three-quarter2.jpeg?isig=0&wm=0&q=75"
  },
  {
    "id": 13,
    "name": "Progressive Cars, SG Highway",
    "city": "Ahmedabad",
    "code": 1,
    "address": "G-9, Shapath V, Beside Hotel Crowne Plaza, Near Karnavati Club , SG Highway, Ahmedabad, Gujarat  - 380015",
    "lattitude": 23.014261,
    "longitude": 72.503947,
    "type": 7,
    "image": "https://encrypted-tbn0.gstatic.com/images?q=tbn:ANd9GcT9XlVq0bgI9abCzX7uA49bavlGh6Bjt08_8g&usqp=CAU"
  },
  {
    "id": 14,
    "name": "Riya Autolink, Ambli BRTS Bus Stand",
    "city": "Ahmedabad",
    "code": 1,
    "address": "Near Devkutir Bunglow, Opp Bopal Ambli BRTS Bus Stand, Iscon-Bopal Road, Ahmedabad, Gujarat - 380058",
    "lattitude": 23.02558,
    "longitude": 72.47991,
    "type": 7,
    "image": "https://chargezone.com/assets/img/blog/blog5.jpeg"
  },
  {
    "id": 15,
    "name": "Fairfield by Marriott, Ashram Rd",
    "city": "Ahmedabad",
    "code": 1,
    "address": "Ashram Rd, Satyawadi Society, Usmanpura, Ahmedabad, Gujarat 380013",
    "lattitude": 23.0522787,
    "longitude": 72.5710882,
    "type": 7,
    "image": "https://assets.bwbx.io/images/users/iqjWHBFdfxIU/ienx0Xtv9kJc/v1/1200x814.jpg"
  },
  {
    "id": 16,
    "name": "Ahmedabad One Mall, Vastrapur",
    "city": "Ahmedabad",
    "code": 1,
    "address": "Plot No. 216, T. P. Scheme 1, Near Vastrapur Lake, Vastrapur, Ahmedabad u00e2u0080u0093 380054",
    "lattitude": 23.0397522,
    "longitude": 72.5318124,
    "type": 7,
    "image": "https://encrypted-tbn0.gstatic.com/images?q=tbn:ANd9GcQZTqpWk8NkJ-fro3mXJ1HXAImNz6NWPD9DVw&usqp=CAU"
  },
  {
    "id": 17,
    "name": "Ahmedabad One Mall, Vastrapur",
    "city": "Ahmedabad",
    "code": 1,
    "address": "Plot No. 216, T. P. Scheme 1, Near Vastrapur Lake, Vastrapur, Ahmedabad u00e2u0080u0093 380054",
    "lattitude": 23.0397522,
    "longitude": 72.5318124,
    "type": 7,
    "image": "https://car-images.bauersecure.com/wp-images/4751/fastned.jpg"
  },
  {
    "id": 18,
    "name": "IOCL - Sardar Petro Station, Bakrol",
    "city": "Ahmedabad",
    "code": 1,
    "address": "M/s Sardar Petrol Station, Near Toll Plaza Ring Road, Bakrol-Bardrabad, Daskroi, Ahmedabad-382433",
    "lattitude": 22.935404,
    "longitude": 72.520954,
    "type": 7,
    "image": "https://encrypted-tbn0.gstatic.com/images?q=tbn:ANd9GcSPdN0ASDqD_MlZNrMLlZ8VOlegW6e8eZRFzg&usqp=CAU"
  },
  {
    "id": 19,
    "name": "HP Service Center, Sola",
    "city": "Ahmedabad",
    "code": 1,
    "address": "F.P. No 232/1, Solaroad, Ahmedabad 380061",
    "lattitude": 23.0633903,
    "longitude": 72.5317625,
    "type": 7,
    "image": "https://assets.mspimages.in/wp-content/uploads/2022/06/India-EV-charging.jpg"
  },
  {
    "id": 20,
    "name": "HP Autocare , Bodakdev",
    "city": "Ahmedabad",
    "code": 1,
    "address": "JUDGES BUNGALOW ROAD, T VILLAGE : BODAKDEV , CITY : AHMEDABAD 380054",
    "lattitude": 23.0332201,
    "longitude": 72.5137528,
    "type": 7,
    "image": "https://www.iisd.org/sites/default/files/styles/banner_mobile/public/2022-07/evs-charging-india.jpg?h=82102dc8&itok=9lkGz8Hk"
  },
  {
    "id": 21,
    "name": "Tata Power",
    "city": "Ahmedabad",
    "code": 1,
    "address": "EV Capital Ram Nagar, Sabarmati, 3HGQ+QV6, Ram Nagar, Sabarmati, Ahmedabad, Gujarat,380005",
    "lattitude": 23.076996,
    "longitude": 72.5896645,
    "type": 7,
    "image": "https://encrypted-tbn0.gstatic.com/images?q=tbn:ANd9GcS8PCvbmifNAR9YdrBCV_7gJrnoeD8eY53N1A&usqp=CAU"
  },
  {
    "id": 22,
    "name": "Tata Power",
    "city": "Ahmedabad",
    "code": 1,
    "address": "Ginger Hotel, DriveIn Road, Ginger Hotel Ahmedabad Behind Himalaya Mall, DriveIn Road, Ahmedabad 380015",
    "lattitude": 23.047141,
    "longitude": 72.531013,
    "type": 7,
    "image": "https://imgd.aeplcdn.com//642x361//n/cw/ec/164625/right-front-three-quarter2.jpeg?isig=0&wm=0&q=75"
  },
  {
    "id": 23,
    "name": "Tata Power",
    "city": "Ahmedabad",
    "code": 1,
    "address": "IOCL Ashtavinayak Petroleum, Hirapur, Survey No.836, Hirapur Chaukadi, Village, Hirapur, Gujarat 382435",
    "lattitude": 22.922329,
    "longitude": 72.711943,
    "type": 7,
    "image": "https://encrypted-tbn0.gstatic.com/images?q=tbn:ANd9GcT9XlVq0bgI9abCzX7uA49bavlGh6Bjt08_8g&usqp=CAU"
  },
  {
    "id": 24,
    "name": "Tata Power",
    "city": "Ahmedabad",
    "code": 1,
    "address": "Riya Autolink, Bodakdev, Near Rajpath Club,SG Highway,Ahmedabad,Gujarat-380054",
    "lattitude": 23.03577,
    "longitude": 72.51,
    "type": 7,
    "image": "https://chargezone.com/assets/img/blog/blog5.jpeg"
  },
  {
    "id": 25,
    "name": "Tata Power",
    "city": "Ahmedabad",
    "code": 1,
    "address": "Yash Motors, Narol, Opp mayauri trading company, near asopalav hotel, narol cross road, narol - pin - 382405",
    "lattitude": 22.973461,
    "longitude": 72.582288,
    "type": 7,
    "image": "https://assets.bwbx.io/images/users/iqjWHBFdfxIU/ienx0Xtv9kJc/v1/1200x814.jpg"
  },
  {
    "id": 26,
    "name": "Mindra EV Charger Shott",
    "city": "Ahmedabad",
    "code": 1,
    "address": "Shott, Sindhu Bhavan Marg, Opposite Saket-3, Next to SANKALP SQUARE, PRL Colony, Thaltej, Ahmedabad, Gujarat 380059",
    "lattitude": 23.0436,
    "longitude": 72.4825,
    "type": 12,
    "image": "https://encrypted-tbn0.gstatic.com/images?q=tbn:ANd9GcQZTqpWk8NkJ-fro3mXJ1HXAImNz6NWPD9DVw&usqp=CAU"
  },
  {
    "id": 27,
    "name": "Hotel swagat INN",
    "city": "Amboli",
    "code": 2,
    "address": "94, NH 48, opp. Tata Motors, Amboli, Gujarat 394150",
    "lattitude": 21.30157137,
    "longitude": 72.95378153,
    "type": 18,
    "image": "https://car-images.bauersecure.com/wp-images/4751/fastned.jpg"
  },
  {
    "id": 28,
    "name": "Hotel swagat INN",
    "city": "Amboli",
    "code": 2,
    "address": "94, NH 48, opp. Tata Motors, Amboli, Gujarat 394150",
    "lattitude": 21.30157137,
    "longitude": 72.95378153,
    "type": 18,
    "image": "https://encrypted-tbn0.gstatic.com/images?q=tbn:ANd9GcSPdN0ASDqD_MlZNrMLlZ8VOlegW6e8eZRFzg&usqp=CAU"
  },
  {
    "id": 29,
    "name": "Hotel Suba Grand, Dahej",
    "city": "Bharuch",
    "code": 3,
    "address": "jolva village , dahej, bharuch ,State u00e2u0080u0093 24 Gujarat 392135",
    "lattitude": 21.7164114,
    "longitude": 72.6562979,
    "type": 7,
    "image": "https://assets.mspimages.in/wp-content/uploads/2022/06/India-EV-charging.jpg"
  },
  {
    "id": 30,
    "name": "Hotel Suba Grand, Dahej",
    "city": "Bharuch",
    "code": 3,
    "address": "jolva village , dahej, bharuch ,State u00e2u0080u0093 24 Gujarat 392135",
    "lattitude": 21.7164114,
    "longitude": 72.6562979,
    "type": 7,
    "image": "https://www.iisd.org/sites/default/files/styles/banner_mobile/public/2022-07/evs-charging-india.jpg?h=82102dc8&itok=9lkGz8Hk"
  },
  {
    "id": 31,
    "name": "Click Hotel, Bhuj",
    "city": "Bhuj",
    "code": 4,
    "address": "opp. Bhuj railway compound,Bhuj, Gujarat 370001",
    "lattitude": 23.2655334,
    "longitude": 69.6786728,
    "type": 7,
    "image": "https://encrypted-tbn0.gstatic.com/images?q=tbn:ANd9GcS8PCvbmifNAR9YdrBCV_7gJrnoeD8eY53N1A&usqp=CAU"
  },
  {
    "id": 32,
    "name": "Click Hotel, Bhuj",
    "city": "Bhuj",
    "code": 4,
    "address": "opp. Bhuj railway compound,Bhuj, Gujarat 370001",
    "lattitude": 23.2655334,
    "longitude": 69.6786728,
    "type": 7,
    "image": "https://imgd.aeplcdn.com//642x361//n/cw/ec/164625/right-front-three-quarter2.jpeg?isig=0&wm=0&q=75"
  },
  {
    "id": 33,
    "name": "IOCL Laxmi Narayan Petroleum, Changodar",
    "city": "Changodar",
    "code": 5,
    "address": "National Highway 8A, Changodar, Gujarat 382210",
    "lattitude": 22.9378139,
    "longitude": 72.455668,
    "type": 7,
    "image": "https://encrypted-tbn0.gstatic.com/images?q=tbn:ANd9GcT9XlVq0bgI9abCzX7uA49bavlGh6Bjt08_8g&usqp=CAU"
  },
  {
    "id": 34,
    "name": "IOCL Laxmi Narayan Petroleum, Changodar",
    "city": "Changodar",
    "code": 5,
    "address": "National Highway 8A, Changodar, Gujarat 382210",
    "lattitude": 22.9378139,
    "longitude": 72.455668,
    "type": 7,
    "image": "https://chargezone.com/assets/img/blog/blog5.jpeg"
  },
  {
    "id": 35,
    "name": "Click Hotel, Junagadh",
    "city": "Junagadh",
    "code": 6,
    "address": "Near Railway Station,Junagadh, Gujratu00c2u00a0u00c2u00a0 362001",
    "lattitude": 21.52840996,
    "longitude": 70.45845795,
    "type": 7,
    "image": "https://assets.bwbx.io/images/users/iqjWHBFdfxIU/ienx0Xtv9kJc/v1/1200x814.jpg"
  },
  {
    "id": 36,
    "name": "Click Hotel, Junagadh",
    "city": "Junagadh",
    "code": 6,
    "address": "Near Railway Station,Junagadh, Gujratu00c2u00a0u00c2u00a0 362001",
    "lattitude": 21.52840996,
    "longitude": 70.45845795,
    "type": 7,
    "image": "https://encrypted-tbn0.gstatic.com/images?q=tbn:ANd9GcQZTqpWk8NkJ-fro3mXJ1HXAImNz6NWPD9DVw&usqp=CAU"
  },
  {
    "id": 37,
    "name": "IOCL Kevadia, Garudeshwar",
    "city": "Kevadia",
    "code": 7,
    "address": "Survey No u00e2u0080u0093 422, 423 Village u00e2u0080u0093 Kevadiya, Taluka u00e2u0080u0093 Garudeshwar District u00e2u0080u0093 Narmada, Gujarat, 393151",
    "lattitude": 21.885704,
    "longitude": 73.688136,
    "type": 7,
    "image": "https://car-images.bauersecure.com/wp-images/4751/fastned.jpg"
  },
  {
    "id": 38,
    "name": "IOCL Kevadia, Garudeshwar",
    "city": "Kevadia",
    "code": 7,
    "address": "Survey No u00e2u0080u0093 422, 423 Village u00e2u0080u0093 Kevadiya, Taluka u00e2u0080u0093 Garudeshwar District u00e2u0080u0093 Narmada, Gujarat, 393151",
    "lattitude": 21.885704,
    "longitude": 73.688136,
    "type": 7,
    "image": "https://encrypted-tbn0.gstatic.com/images?q=tbn:ANd9GcSPdN0ASDqD_MlZNrMLlZ8VOlegW6e8eZRFzg&usqp=CAU"
  },
  {
    "id": 39,
    "name": "GJ|NAVSARI|NH 8,GRID ROAD",
    "city": "NAVSARI",
    "code": 8,
    "address": "HOTEL  FUN CITY(PURE VEG),NH 8,GRID ROAD,BESIDE PEEDEE ELECTRONCS,KABILPORE,NAVSARI",
    "lattitude": 20.94457359,
    "longitude": 72.962844,
    "type": 9,
    "image": "https://assets.mspimages.in/wp-content/uploads/2022/06/India-EV-charging.jpg"
  },
  {
    "id": 40,
    "name": "GJ|NAVSARI|NH 8,GRID ROAD",
    "city": "NAVSARI",
    "code": 8,
    "address": "HOTEL  FUN CITY(PURE VEG),NH 8,GRID ROAD,BESIDE PEEDEE ELECTRONCS,KABILPORE,NAVSARI",
    "lattitude": 20.9446,
    "longitude": 72.9628,
    "type": 24,
    "image": "https://www.iisd.org/sites/default/files/styles/banner_mobile/public/2022-07/evs-charging-india.jpg?h=82102dc8&itok=9lkGz8Hk"
  },
  {
    "id": 41,
    "name": "Parin Motors, NH8 Gondal Highway",
    "city": "Rajkot",
    "code": 9,
    "address": "149, Plot No 2, Survey No, NH 8B, Gondal Highway, near Parin Furniture, Rajkot, Gujarat 360004",
    "lattitude": 22.225264,
    "longitude": 70.801197,
    "type": 7,
    "image": "https://encrypted-tbn0.gstatic.com/images?q=tbn:ANd9GcS8PCvbmifNAR9YdrBCV_7gJrnoeD8eY53N1A&usqp=CAU"
  },
  {
    "id": 42,
    "name": "Jai Ganesh, Kothariya",
    "city": "Rajkot",
    "code": 9,
    "address": "Jai Ganesh MG. Opp Krishna Park , Rajkot-Gondal Highway ,Kothariya, Rajkot-360003",
    "lattitude": 22.227526,
    "longitude": 70.801092,
    "type": 7,
    "image": "https://imgd.aeplcdn.com//642x361//n/cw/ec/164625/right-front-three-quarter2.jpeg?isig=0&wm=0&q=75"
  },
  {
    "id": 43,
    "name": "Parin Motors, NH8 Gondal Highway",
    "city": "Rajkot",
    "code": 9,
    "address": "149, Plot No 2, Survey No, NH 8B, Gondal Highway, near Parin Furniture, Rajkot, Gujarat 360004",
    "lattitude": 22.225264,
    "longitude": 70.801197,
    "type": 7,
    "image": "https://encrypted-tbn0.gstatic.com/images?q=tbn:ANd9GcT9XlVq0bgI9abCzX7uA49bavlGh6Bjt08_8g&usqp=CAU"
  },
  {
    "id": 44,
    "name": "Comfort Inn Legacy By One Earth",
    "city": "Rajkot",
    "code": 9,
    "address": "Comfort Inn Legacy By One Earth Panchnath Road, Limda Chowk, Rajkot Gujrat-360001",
    "lattitude": 22.2967048,
    "longitude": 70.7991222,
    "type": 7,
    "image": "https://chargezone.com/assets/img/blog/blog5.jpeg"
  },
  {
    "id": 45,
    "name": "Tata Power",
    "city": "Rajkot",
    "code": 9,
    "address": "IOCL Motamawa, Kalavad Road, Near Saraza, Opp Cosmoplex Cinema, Kalavad Rd, Rajkot, Gujarat 360005",
    "lattitude": 22.269902,
    "longitude": 70.741577,
    "type": 7,
    "image": "https://assets.bwbx.io/images/users/iqjWHBFdfxIU/ienx0Xtv9kJc/v1/1200x814.jpg"
  },
  {
    "id": 46,
    "name": "VR Surat",
    "city": "Surat",
    "code": 10,
    "address": "Dumas Rd, Magdalla, Surat, Gujarat",
    "lattitude": 21.1451737,
    "longitude": 72.7569487,
    "type": 6,
    "image": "https://encrypted-tbn0.gstatic.com/images?q=tbn:ANd9GcQZTqpWk8NkJ-fro3mXJ1HXAImNz6NWPD9DVw&usqp=CAU"
  },
  {
    "id": 47,
    "name": "Pramukh Auto, Umiya Nagar",
    "city": "Surat",
    "code": 10,
    "address": "Plot No. 409/27-A, Umiya Nagar Society,Near Chosath Jogni Mata Temple,Udhna Magdalla Road,Surat-394210",
    "lattitude": 21.164948,
    "longitude": 72.835879,
    "type": 7,
    "image": "https://car-images.bauersecure.com/wp-images/4751/fastned.jpg"
  },
  {
    "id": 48,
    "name": "Shreeji Automart, Piplod",
    "city": "Surat",
    "code": 10,
    "address": "04 A/B, Shreeji House,Opp. Big Bazar,Dumas Road, Piplod,Surat-395002",
    "lattitude": 21.159829,
    "longitude": 72.770603,
    "type": 7,
    "image": "https://encrypted-tbn0.gstatic.com/images?q=tbn:ANd9GcSPdN0ASDqD_MlZNrMLlZ8VOlegW6e8eZRFzg&usqp=CAU"
  },
  {
    "id": 49,
    "name": "GJ | Surat | Kamrej",
    "city": "Surat",
    "code": 10,
    "address": "Block number 552-553 IRB Compound opp Mansarovar Residency NH 8 Kamrej, Surat 394185",
    "lattitude": 21.221,
    "longitude": 72.8733,
    "type": 24,
    "image": "https://assets.mspimages.in/wp-content/uploads/2022/06/India-EV-charging.jpg"
  },
  {
    "id": 50,
    "name": "Z Charging Station",
    "city": "Vadodara",
    "code": 11,
    "address": "Sai Vihar, Abbas Tyabji Rd, Jayesh Colony, Fatehgunj, Vadodara, Gujarat 390002",
    "lattitude": 22.3213,
    "longitude": 73.1881,
    "type": 12,
    "image": "https://www.iisd.org/sites/default/files/styles/banner_mobile/public/2022-07/evs-charging-india.jpg?h=82102dc8&itok=9lkGz8Hk"
  },
  {
    "id": 51,
    "name": "IOCL Manjalpur, GIDC Rd Manjalpur",
    "city": "Vadodara",
    "code": 11,
    "address": "312, GIDC Rd, Beside Om Pippadiya Hanumanji Mandir, Ghanshyam Nagar Society 2, Manjalpur, Vadodara, Gujarat 390011",
    "lattitude": 22.271793,
    "longitude": 73.190795,
    "type": 7,
    "image": "https://encrypted-tbn0.gstatic.com/images?q=tbn:ANd9GcS8PCvbmifNAR9YdrBCV_7gJrnoeD8eY53N1A&usqp=CAU"
  },
  {
    "id": 52,
    "name": "ABC Autolink, NH 64 Ranoli",
    "city": "Vadodara",
    "code": 11,
    "address": "No 1401, Ranoli GIDC, Vadodara, NH 64, Gujarat 391350",
    "lattitude": 22.403828,
    "longitude": 73.13455,
    "type": 7,
    "image":"https://imgd.aeplcdn.com//642x361//n/cw/ec/164625/right-front-three-quarter2.jpeg?isig=0&wm=0&q=75"
  },
  {
    "id": 53,
    "name": "IOCL Omkar Petroleum, Subhanpura",
    "city": "Vadodara",
    "code": 11,
    "address": "High Tension Rd, Subhanpura, Vadodara, Gujarat 390023",
    "lattitude": 22.3216986,
    "longitude": 73.154986,
    "type": 7,
    "image": "https://encrypted-tbn0.gstatic.com/images?q=tbn:ANd9GcT9XlVq0bgI9abCzX7uA49bavlGh6Bjt08_8g&usqp=CAU"
  },
  {
    "id": 54,
    "name": "Hotel Suba Elite, Fatehganj Main Road",
    "city": "Vadodara",
    "code": 11,
    "address": "near Parsi Agiyari , Fatehganj Main Road, Vadodara u00e2u0080u0093 390 002 Gujarat 390002",
    "lattitude": 22.3205834,
    "longitude": 73.1883779,
    "type": 7,
    "image": "https://chargezone.com/assets/img/blog/blog5.jpeg"
  },
  {
    "id": 55,
    "name": "IOCL Manjalpur, GIDC Rd Manjalpur",
    "city": "Vadodara",
    "code": 11,
    "address": "312, GIDC Rd, Beside Om Pippadiya Hanumanji Mandir, Ghanshyam Nagar Society 2, Manjalpur, Vadodara, Gujarat 390011",
    "lattitude": 22.271793,
    "longitude": 73.190795,
    "type": 7,
    "image": "https://assets.bwbx.io/images/users/iqjWHBFdfxIU/ienx0Xtv9kJc/v1/1200x814.jpg"
  },
  {
    "id": 56,
    "name": "ABC Autolink, NH 64 Ranoli",
    "city": "Vadodara",
    "code": 11,
    "address": "No 1401, Ranoli GIDC, Vadodara, NH 64, Gujarat 391350",
    "lattitude": 22.403828,
    "longitude": 73.13455,
    "type": 7,
    "image": "https://encrypted-tbn0.gstatic.com/images?q=tbn:ANd9GcQZTqpWk8NkJ-fro3mXJ1HXAImNz6NWPD9DVw&usqp=CAU"
  },
  {
    "id": 57,
    "name": "Hotel Suba Elite, Fatehganj Main Road",
    "city": "Vadodara",
    "code": 11,
    "address": "near Parsi Agiyari , Fatehganj Main Road, Vadodara u00e2u0080u0093 390 002 Gujarat 390002",
    "lattitude": 22.3205834,
    "longitude": 73.1883779,
    "type": 7,
    "image": "https://car-images.bauersecure.com/wp-images/4751/fastned.jpg"
  },
  {
    "id": 58,
    "name": "IOCL Omkar Petroleum, Subhanpura",
    "city": "Vadodara",
    "code": 11,
    "address": "High Tension Rd, Subhanpura, Vadodara, Gujarat 390023",
    "lattitude": 22.3216986,
    "longitude": 73.154986,
    "type": 7,
    "image": "https://encrypted-tbn0.gstatic.com/images?q=tbn:ANd9GcSPdN0ASDqD_MlZNrMLlZ8VOlegW6e8eZRFzg&usqp=CAU"
  },
  {
    "id": 59,
    "name": "Charge Zone",
    "city": "Vapi",
    "code": 12,
    "address": "GJ | Vapi |Shanti-Complex ,Shanti Complex, Beside King Ford Near Jalaram Temple, NH-8, Vapi, Gujarat 396191",
    "lattitude": 20.38000422,
    "longitude": 72.914853,
    "type": 24,
    "image": "https://assets.mspimages.in/wp-content/uploads/2022/06/India-EV-charging.jpg"
  },
  {
    "id": 60,
    "name": "Tata Power",
    "city": "Vapi",
    "code": 12,
    "address": "Ginger Hotel, Salvav, Ginger Hotel Vapi Dream Honda, Opp. Empress Mall, NH-08, Salvav, Vapi, Gujarat-396191",
    "lattitude": 20.414322,
    "longitude": 72.91809,
    "type": 7,
    "image": "https://www.iisd.org/sites/default/files/styles/banner_mobile/public/2022-07/evs-charging-india.jpg?h=82102dc8&itok=9lkGz8Hk"
  },
  {
    "id": 61,
    "name": "Electric Vehicle Charging Station",
    "city": "Gandhinagar",
    "code": 13,
    "address": "B-33, Gidc Electronic Estate, Sector 25, Gandhinagar, Gujarat 382024, India",
    "lattitude": 23.247660,
    "longitude": 72.634620,
    "type": 7,
    "image": "https://imgd.aeplcdn.com//642x361//n/cw/ec/164625/right-front-three-quarter2.jpeg?isig=0&wm=0&q=75"
  },
  {
    "id": 62,
    "name": "Jaygayatri Electric Engg Work",
    "city": "Gandhinagar",
    "code": 13,
    "address": "848 Sector-21, Vishwakarma Shopping Centre, Gandhi Nagar, Gandhi Nagar, Gandhinagar, Gujarat 382021, India",
    "lattitude": 23.235460,
    "longitude": 72.657509,
    "type": 7,
    "image": "https://encrypted-tbn0.gstatic.com/images?q=tbn:ANd9GcSPdN0ASDqD_MlZNrMLlZ8VOlegW6e8eZRFzg&usqp=CAU"
  },
   {
    "id": 63,
    "name": " Mihir E Bikes Electric Vehicles",
    "city": "Gandhinagar",
    "code": 13,
    "address": "Plot No K1-902/7, B/h Hyundai Showrooms, Near Ajanta Marble, Sector 28 Gidc, Sector 28, Gandhinagar, Gujarat 382027, Ind",
    "lattitude": 23.2534661,
    "longitude": 72.5751911,
    "type": 7,
    "image": "https://encrypted-tbn0.gstatic.com/images?q=tbn:ANd9GcSPdN0ASDqD_MlZNrMLlZ8VOlegW6e8eZRFzg&usqp=CAU"
  },
  {
    "id": 64,
    "name": "Tunwal E-Bike India",
    "city": "Gandhinagar",
    "code": 13,
    "address": "E-91, Gidc,electronic Estate, Sector-26,, Gandhinagar, Gujarat 382026, India",
    "lattitude": 23.2570444,
    "longitude": 72.5498136,
    "type": 7,
    "image": "https://chargezone.com/assets/img/blog/blog5.jpeg"
  }
]
